{
  "generated": "2026-03-16T03:10:25.972715+00:00",
  "stores": {
    "19801": {
      "store_num": "19801",
      "store_name": "3RD & LAVACA",
      "address": "301 W 3rd St, Austin, Texas, United States",
      "lat": 30.2658493,
      "lng": -97.7465097,
      "open_roles": {
        "Shift Supervisor": 1,
        "Barista": 1
      },
      "vacancy_score": 3.0,
      "vacancy_level": "critical",
      "listing_count": 2,
      "latest_posting": 1772859600,
      "osm_ids": []
    },
    "06319": {
      "store_num": "06319",
      "store_name": "5TH & LAMAR",
      "address": "907 W 5th St, Ste 102, Austin, Texas, United States",
      "lat": 30.2699007,
      "lng": -97.7540185,
      "open_roles": {
        "Shift Supervisor": 1,
        "Barista": 1
      },
      "vacancy_score": 3.0,
      "vacancy_level": "critical",
      "listing_count": 2,
      "latest_posting": 1768194000,
      "osm_ids": []
    },
    "06368": {
      "store_num": "06368",
      "store_name": "15TH & SAN ANTONIO",
      "address": "501 W 15th St, Moonlight Place Shopping Center, Austin, Texas, United States",
      "lat": 30.2780866,
      "lng": -97.7444336,
      "open_roles": {
        "Shift Supervisor": 1,
        "Barista": 1
      },
      "vacancy_score": 3.0,
      "vacancy_level": "critical",
      "listing_count": 2,
      "latest_posting": 1772254800,
      "osm_ids": []
    },
    "49678": {
      "store_num": "49678",
      "store_name": "Barton Springs & S. Lamar",
      "address": "1200 Barton Springs Rd, Austin, Texas, United States",
      "lat": 30.2612258,
      "lng": -97.7579517,
      "open_roles": {
        "Shift Supervisor": 1,
        "Barista": 1
      },
      "vacancy_score": 3.0,
      "vacancy_level": "critical",
      "listing_count": 2,
      "latest_posting": 1773288000,
      "osm_ids": []
    },
    "65081": {
      "store_num": "65081",
      "store_name": "22ND & RIO GRANDE WEST CAMPUS",
      "address": "611 W 22nd St, Austin, Texas, United States",
      "lat": 30.2850245,
      "lng": -97.7447259,
      "open_roles": {
        "Shift Supervisor": 1,
        "Barista": 1
      },
      "vacancy_score": 3.0,
      "vacancy_level": "critical",
      "listing_count": 2,
      "latest_posting": 1766466000,
      "osm_ids": []
    },
    "06284": {
      "store_num": "06284",
      "store_name": "W. 24TH & NUECES",
      "address": "504 W 24th St, Suite B, Austin, Texas, United States",
      "lat": 30.2879647,
      "lng": -97.7425962,
      "open_roles": {
        "Barista": 1,
        "Shift Supervisor": 1
      },
      "vacancy_score": 3.0,
      "vacancy_level": "critical",
      "listing_count": 2,
      "latest_posting": 1766293200,
      "osm_ids": []
    },
    "06356": {
      "store_num": "06356",
      "store_name": "SOUTH LAMAR & COLLIER",
      "address": "1509 South Lamar Blvd, Suite 100, Austin, Texas, United States",
      "lat": 30.251963,
      "lng": -97.7637415,
      "open_roles": {
        "Barista": 1,
        "Shift Supervisor": 1
      },
      "vacancy_score": 3.0,
      "vacancy_level": "critical",
      "listing_count": 2,
      "latest_posting": 1767762000,
      "osm_ids": []
    },
    "20458": {
      "store_num": "20458",
      "store_name": "RIVERSIDE & ARENA",
      "address": "1920 East Riverside Dr., Building E, Unit 100, Austin, Texas, United States",
      "lat": 30.2423156,
      "lng": -97.7273936,
      "open_roles": {
        "Barista": 1,
        "Shift Supervisor": 1
      },
      "vacancy_score": 3.0,
      "vacancy_level": "critical",
      "listing_count": 2,
      "latest_posting": 1773460800,
      "osm_ids": []
    },
    "20588": {
      "store_num": "20588",
      "store_name": "1ST & OLTORF",
      "address": "516 W Oltorf, Austin, Texas, United States",
      "lat": 30.2422027,
      "lng": -97.7589575,
      "open_roles": {
        "Shift Supervisor": 1,
        "Barista": 1
      },
      "vacancy_score": 3.0,
      "vacancy_level": "critical",
      "listing_count": 2,
      "latest_posting": 1772859600,
      "osm_ids": []
    },
    "08632": {
      "store_num": "08632",
      "store_name": "OLTORF & I-35",
      "address": "2300 S IH-35 South, Austin, Texas, United States",
      "lat": 30.1972777,
      "lng": -97.764503,
      "open_roles": {
        "Shift Supervisor": 1,
        "Barista": 1
      },
      "vacancy_score": 3.0,
      "vacancy_level": "critical",
      "listing_count": 2,
      "latest_posting": 1771045200,
      "osm_ids": []
    },
    "09612": {
      "store_num": "09612",
      "store_name": "38TH & GUADALUPE",
      "address": "3706 Guadalupe Street, A, Austin, Texas, United States",
      "lat": 30.302599,
      "lng": -97.7385753,
      "open_roles": {
        "Barista": 1,
        "Shift Supervisor": 1
      },
      "vacancy_score": 3.0,
      "vacancy_level": "critical",
      "listing_count": 2,
      "latest_posting": 1772341200,
      "osm_ids": []
    },
    "06227": {
      "store_num": "06227",
      "store_name": "CASIS VILLAGE",
      "address": "2727 Exposition Blvd., Unit #126, Austin, Texas, United States",
      "lat": 30.3041273,
      "lng": -97.7639485,
      "open_roles": {
        "Shift Supervisor": 1,
        "Barista": 1
      },
      "vacancy_score": 3.0,
      "vacancy_level": "critical",
      "listing_count": 2,
      "latest_posting": 1766293200,
      "osm_ids": []
    },
    "06328": {
      "store_num": "06328",
      "store_name": "45TH AND LAMAR",
      "address": "4400 N Lamar, Ste 104, Austin, Texas, United States",
      "lat": 30.3125892,
      "lng": -97.7386069,
      "open_roles": {
        "Shift Supervisor": 1,
        "Barista": 1
      },
      "vacancy_score": 3.0,
      "vacancy_level": "critical",
      "listing_count": 2,
      "latest_posting": 1766293200,
      "osm_ids": []
    },
    "13418": {
      "store_num": "13418",
      "store_name": "I 35 & 51ST",
      "address": "1201 Barbara Jordan Blvd., 1200, Austin, Texas, United States",
      "lat": 30.3067979,
      "lng": -97.7106192,
      "open_roles": {
        "Barista": 1,
        "Shift Supervisor": 1
      },
      "vacancy_score": 3.0,
      "vacancy_level": "critical",
      "listing_count": 2,
      "latest_posting": 1773115200,
      "osm_ids": []
    },
    "00691": {
      "store_num": "00691",
      "store_name": "WALSH TARLTON AND BEE CAVES",
      "address": "3300 Bee Cave Road, Ste 250, Austin, Texas, United States",
      "lat": 30.2751541,
      "lng": -97.8005855,
      "open_roles": {
        "Barista": 1,
        "Shift Supervisor": 1
      },
      "vacancy_score": 3.0,
      "vacancy_level": "critical",
      "listing_count": 2,
      "latest_posting": 1766638800,
      "osm_ids": []
    },
    "22300": {
      "store_num": "22300",
      "store_name": "BERKMAN & 51ST - MUELLER",
      "address": "1801 E. 51ST STREET BLDG A, 190, Austin, Texas, United States",
      "lat": 30.3008577,
      "lng": -97.6985507,
      "open_roles": {
        "Barista": 1,
        "Shift Supervisor": 1
      },
      "vacancy_score": 3.0,
      "vacancy_level": "critical",
      "listing_count": 2,
      "latest_posting": 1772859600,
      "osm_ids": []
    },
    "06388": {
      "store_num": "06388",
      "store_name": "BRODIE OAKS CENTER ON S LAMAR",
      "address": "4006 S Lamar Blvd, Austin, Texas, United States",
      "lat": 30.2379865,
      "lng": -97.7930441,
      "open_roles": {
        "Shift Supervisor": 1,
        "Barista": 1
      },
      "vacancy_score": 3.0,
      "vacancy_level": "critical",
      "listing_count": 2,
      "latest_posting": 1766293200,
      "osm_ids": []
    },
    "14663": {
      "store_num": "14663",
      "store_name": "SR 71 & E RIVERSIDE",
      "address": "7709 E Ben White Blvd, 100, Austin, Texas, United States",
      "lat": 30.2176728,
      "lng": -97.6898114,
      "open_roles": {
        "Barista": 1,
        "Shift Supervisor": 1
      },
      "vacancy_score": 3.0,
      "vacancy_level": "critical",
      "listing_count": 2,
      "latest_posting": 1772686800,
      "osm_ids": []
    },
    "06341": {
      "store_num": "06341",
      "store_name": "NORTHLAND & BALCONES",
      "address": "3317 Northland Dr, Ste A, Austin, Texas, United States",
      "lat": 30.336904,
      "lng": -97.756879,
      "open_roles": {
        "Shift Supervisor": 1,
        "Barista": 1
      },
      "vacancy_score": 3.0,
      "vacancy_level": "critical",
      "listing_count": 2,
      "latest_posting": 1772254800,
      "osm_ids": []
    },
    "71323": {
      "store_num": "71323",
      "store_name": "N LAMAR BLVD & AIRPORT BLVD",
      "address": "6903 Airport Blvd, Austin, Texas, United States",
      "lat": 30.3359782,
      "lng": -97.7175639,
      "open_roles": {
        "Shift Supervisor": 1,
        "Barista": 1
      },
      "vacancy_score": 3.0,
      "vacancy_level": "critical",
      "listing_count": 2,
      "latest_posting": 1766898000,
      "osm_ids": []
    },
    "06386": {
      "store_num": "06386",
      "store_name": "WESTGATE & WILLIAM CANNON",
      "address": "6816  Westgate Blvd., Austin, Texas, United States",
      "lat": 30.2066,
      "lng": -97.8166,
      "open_roles": {
        "Barista": 1,
        "Shift Supervisor": 1
      },
      "vacancy_score": 3.0,
      "vacancy_level": "critical",
      "listing_count": 2,
      "latest_posting": 1766293200,
      "osm_ids": []
    },
    "06238": {
      "store_num": "06238",
      "store_name": "BEE CAVE & 360",
      "address": "701 South Capitol of Texas Highway, Village at Westlake, B-200, Austin, Texas, United States",
      "lat": 30.2931533,
      "lng": -97.8272128,
      "open_roles": {
        "Shift Supervisor": 1,
        "Barista": 1
      },
      "vacancy_score": 3.0,
      "vacancy_level": "critical",
      "listing_count": 2,
      "latest_posting": 1766466000,
      "osm_ids": []
    },
    "84715": {
      "store_num": "84715",
      "store_name": "LOOP 360 & WESTLAKE",
      "address": "3801 N Capital Of Texas Hwy, Ste G100, Austin, Texas, United States",
      "lat": 30.3375128,
      "lng": -97.8037766,
      "open_roles": {
        "Shift Supervisor": 1,
        "Barista": 1
      },
      "vacancy_score": 3.0,
      "vacancy_level": "critical",
      "listing_count": 2,
      "latest_posting": 1770872400,
      "osm_ids": []
    },
    "53861": {
      "store_num": "53861",
      "store_name": "FAR WEST BLVD AT HART LN",
      "address": "3637 Far West Blvd, Austin, Texas, United States",
      "lat": 30.354612,
      "lng": -97.7564805,
      "open_roles": {
        "Shift Supervisor": 1,
        "Barista": 1
      },
      "vacancy_score": 3.0,
      "vacancy_level": "critical",
      "listing_count": 2,
      "latest_posting": 1773115200,
      "osm_ids": []
    },
    "52483": {
      "store_num": "52483",
      "store_name": "HWY 71 & CARDINAL LOOP",
      "address": "2401 Cardinal Loop, Del Valle, Texas, United States",
      "lat": 30.213281,
      "lng": -97.6582036,
      "open_roles": {
        "Shift Supervisor": 1,
        "Barista": 1
      },
      "vacancy_score": 3.0,
      "vacancy_level": "critical",
      "listing_count": 2,
      "latest_posting": 1773460800,
      "osm_ids": []
    },
    "06330": {
      "store_num": "06330",
      "store_name": "ANDERSON & ROCKWOOD",
      "address": "2900 W Anderson Ln, Austin, Texas, United States",
      "lat": 30.3591164,
      "lng": -97.7358963,
      "open_roles": {
        "Barista": 1,
        "Shift Supervisor": 1
      },
      "vacancy_score": 3.0,
      "vacancy_level": "critical",
      "listing_count": 2,
      "latest_posting": 1768107600,
      "osm_ids": []
    },
    "06380": {
      "store_num": "06380",
      "store_name": "WILLIAM CANNON & MOPAC",
      "address": "6600 S Mopac Expy, West Creek Shopping Center, Ste 2100, Austin, Texas, United States",
      "lat": 30.2229464,
      "lng": -97.8362853,
      "open_roles": {
        "Barista": 1,
        "Shift Supervisor": 1
      },
      "vacancy_score": 3.0,
      "vacancy_level": "critical",
      "listing_count": 2,
      "latest_posting": 1766293200,
      "osm_ids": []
    },
    "10618": {
      "store_num": "10618",
      "store_name": "I-35 & SLAUGHTER",
      "address": "9300 S I-35 Service Rd S Bound, G100, Austin, Texas, United States",
      "lat": 30.1649084,
      "lng": -97.790559,
      "open_roles": {
        "Barista": 1,
        "Shift Supervisor": 1
      },
      "vacancy_score": 3.0,
      "vacancy_level": "critical",
      "listing_count": 2,
      "latest_posting": 1772686800,
      "osm_ids": []
    },
    "19336": {
      "store_num": "19336",
      "store_name": "SLAUGHTER & BRODIE",
      "address": "3328 Slaughter Lane, Austin, Texas, United States",
      "lat": 30.1827515,
      "lng": -97.8470149,
      "open_roles": {
        "Shift Supervisor": 1,
        "Barista": 1
      },
      "vacancy_score": 3.0,
      "vacancy_level": "critical",
      "listing_count": 2,
      "latest_posting": 1773115200,
      "osm_ids": []
    },
    "54430": {
      "store_num": "54430",
      "store_name": "BURNET & BRAKER LANE",
      "address": "2711 W. Braker Lane, Austin, Texas, United States",
      "lat": 30.3909005,
      "lng": -97.7222576,
      "open_roles": {
        "Barista": 1,
        "Shift Supervisor": 1
      },
      "vacancy_score": 3.0,
      "vacancy_level": "critical",
      "listing_count": 2,
      "latest_posting": 1772082000,
      "osm_ids": []
    },
    "06203": {
      "store_num": "06203",
      "store_name": "GREAT HILLS TRAIL & JOLLYVILLE",
      "address": "9722 Great Hills Trl, Ste 380, Austin, Texas, United States",
      "lat": 30.395413,
      "lng": -97.75191,
      "open_roles": {
        "Barista": 1,
        "Shift Supervisor": 1
      },
      "vacancy_score": 3.0,
      "vacancy_level": "critical",
      "listing_count": 2,
      "latest_posting": 1772082000,
      "osm_ids": []
    },
    "09617": {
      "store_num": "09617",
      "store_name": "SLAUGHTER & ESCARPMENT",
      "address": "9600 Escarpment Blvd  Bldg F, Escarpment Village Shopping Center, 700, Austin, Texas, United States",
      "lat": 30.2027393,
      "lng": -97.8788382,
      "open_roles": {
        "Barista": 1,
        "Shift Supervisor": 1
      },
      "vacancy_score": 3.0,
      "vacancy_level": "critical",
      "listing_count": 2,
      "latest_posting": 1772341200,
      "osm_ids": []
    },
    "48298": {
      "store_num": "48298",
      "store_name": "The Domain Northside",
      "address": "3120 Palm Way, 110, Austin, Texas, United States",
      "lat": 30.402789,
      "lng": -97.721324,
      "open_roles": {
        "Barista": 1,
        "Shift Supervisor": 1
      },
      "vacancy_score": 3.0,
      "vacancy_level": "critical",
      "listing_count": 2,
      "latest_posting": 1772946000,
      "osm_ids": []
    },
    "27863": {
      "store_num": "27863",
      "store_name": "Parmer & Dessau",
      "address": "1606 E. Parmer Lane, Suite 100, Austin, Texas, United States",
      "lat": 30.3886025,
      "lng": -97.6502811,
      "open_roles": {
        "Shift Supervisor": 1,
        "Barista": 1
      },
      "vacancy_score": 3.0,
      "vacancy_level": "critical",
      "listing_count": 2,
      "latest_posting": 1772946000,
      "osm_ids": []
    },
    "86276": {
      "store_num": "86276",
      "store_name": "E PARMER LN & INNOVAR CIR",
      "address": "4107 E Yager Ln, 200, Austin, Texas, United States",
      "lat": 30.3967555,
      "lng": -97.6681474,
      "open_roles": {
        "Barista": 1,
        "Shift Supervisor": 1
      },
      "vacancy_score": 3.0,
      "vacancy_level": "critical",
      "listing_count": 2,
      "latest_posting": 1768107600,
      "osm_ids": []
    },
    "06402": {
      "store_num": "06402",
      "store_name": "PARMER & METRIC",
      "address": "1700 W Parmer Ln, Scofield Farms Market, Austin, Texas, United States",
      "lat": 30.4129557,
      "lng": -97.6869553,
      "open_roles": {
        "Shift Supervisor": 1,
        "Barista": 1
      },
      "vacancy_score": 3.0,
      "vacancy_level": "critical",
      "listing_count": 2,
      "latest_posting": 1769403600,
      "osm_ids": []
    },
    "11556": {
      "store_num": "11556",
      "store_name": "PARMER & MOPAC",
      "address": "2505 W Parmer Lane, Austin, Texas, United States",
      "lat": 30.4188089,
      "lng": -97.7027266,
      "open_roles": {
        "Shift Supervisor": 1,
        "Barista": 1
      },
      "vacancy_score": 3.0,
      "vacancy_level": "critical",
      "listing_count": 2,
      "latest_posting": 1772859600,
      "osm_ids": []
    },
    "67609": {
      "store_num": "67609",
      "store_name": "FM 620 & STEINER RANCH BLVD",
      "address": "5810 Steiner Ranch Boulevard, Austin, Texas, United States",
      "lat": 30.3901071,
      "lng": -97.8717671,
      "open_roles": {
        "Shift Supervisor": 1,
        "Barista": 1
      },
      "vacancy_score": 3.0,
      "vacancy_level": "critical",
      "listing_count": 2,
      "latest_posting": 1772341200,
      "osm_ids": []
    },
    "06397": {
      "store_num": "06397",
      "store_name": "BEE CAVE & 71",
      "address": "12400 State Hwy 71 West, HEB Shopping Center, 710, Austin, Texas, United States",
      "lat": 30.3035224,
      "lng": -97.9326811,
      "open_roles": {
        "Shift Supervisor": 1,
        "Barista": 1
      },
      "vacancy_score": 3.0,
      "vacancy_level": "critical",
      "listing_count": 2,
      "latest_posting": 1766293200,
      "osm_ids": []
    },
    "06374": {
      "store_num": "06374",
      "store_name": "FM 620 & VISTA PARK",
      "address": "7710 N FM 620, Unit 610, Austin, Texas, United States",
      "lat": 30.4321059,
      "lng": -97.8415413,
      "open_roles": {
        "Barista": 1,
        "Shift Supervisor": 1
      },
      "vacancy_score": 3.0,
      "vacancy_level": "critical",
      "listing_count": 2,
      "latest_posting": 1766293200,
      "osm_ids": []
    },
    "09676": {
      "store_num": "09676",
      "store_name": "PARMER & MCNEIL",
      "address": "6301 West Parmer Lane, Parmer-McNeil Plaza, 401, Austin, Texas, United States",
      "lat": 30.4253907,
      "lng": -97.7169129,
      "open_roles": {
        "Shift Supervisor": 1,
        "Barista": 1
      },
      "vacancy_score": 3.0,
      "vacancy_level": "critical",
      "listing_count": 2,
      "latest_posting": 1772341200,
      "osm_ids": []
    },
    "26036": {
      "store_num": "26036",
      "store_name": "HWY 290 & LEXINGTON, MANOR",
      "address": "12608 Lexington, Manor, Texas, United States",
      "lat": 30.3496912,
      "lng": -97.5564196,
      "open_roles": {
        "Barista": 1,
        "Shift Supervisor": 1
      },
      "vacancy_score": 3.0,
      "vacancy_level": "critical",
      "listing_count": 2,
      "latest_posting": 1769403600,
      "osm_ids": []
    },
    "06373": {
      "store_num": "06373",
      "store_name": "Anderson Mill & 183",
      "address": "9617 Anderson Mill Rd, 238, Austin, Texas, United States",
      "lat": 30.4480658,
      "lng": -97.7917097,
      "open_roles": {
        "Shift Supervisor": 1,
        "Barista": 1
      },
      "vacancy_score": 3.0,
      "vacancy_level": "critical",
      "listing_count": 2,
      "latest_posting": 1766293200,
      "osm_ids": []
    },
    "13419": {
      "store_num": "13419",
      "store_name": "I-35 & LOOP 4",
      "address": "15295 I-35, Buda, Texas, United States",
      "lat": 30.0464888,
      "lng": -97.8400063,
      "open_roles": {
        "Barista": 1,
        "Shift Supervisor": 1
      },
      "vacancy_score": 3.0,
      "vacancy_level": "critical",
      "listing_count": 2,
      "latest_posting": 1772686800,
      "osm_ids": []
    },
    "84505": {
      "store_num": "84505",
      "store_name": "HWY 71 & HAMILTON POOL RD",
      "address": "14211 State Hwy 71, Austin, Texas, United States",
      "lat": 30.20901,
      "lng": -97.6495378,
      "open_roles": {
        "Shift Supervisor": 1,
        "Barista": 1
      },
      "vacancy_score": 3.0,
      "vacancy_level": "critical",
      "listing_count": 2,
      "latest_posting": 1766984400,
      "osm_ids": []
    },
    "14446": {
      "store_num": "14446",
      "store_name": "FM 1825 & CENTRAL COMMERCE",
      "address": "2604 W Pecan St, B, Pflugerville, Texas, United States",
      "lat": 30.4490257,
      "lng": -97.6553542,
      "open_roles": {
        "Barista": 1,
        "Shift Supervisor": 1
      },
      "vacancy_score": 3.0,
      "vacancy_level": "critical",
      "listing_count": 2,
      "latest_posting": 1772859600,
      "osm_ids": []
    },
    "15747": {
      "store_num": "15747",
      "store_name": "620 & ANDERSON MILL",
      "address": "11521 FM 620 N, Plaza Volente Shopping Center, 950, Austin, Texas, United States",
      "lat": 30.4532051,
      "lng": -97.8270471,
      "open_roles": {
        "Shift Supervisor": 1,
        "Barista": 1
      },
      "vacancy_score": 3.0,
      "vacancy_level": "critical",
      "listing_count": 2,
      "latest_posting": 1772859600,
      "osm_ids": []
    },
    "56071": {
      "store_num": "56071",
      "store_name": "FM 1626 & FM 967",
      "address": "230 S. FM 1626, 100, Buda, Texas, United States",
      "lat": 30.0957049,
      "lng": -97.875476,
      "open_roles": {
        "Barista": 1,
        "Shift Supervisor": 1
      },
      "vacancy_score": 3.0,
      "vacancy_level": "critical",
      "listing_count": 2,
      "latest_posting": 1773115200,
      "osm_ids": []
    },
    "06364": {
      "store_num": "06364",
      "store_name": "620 & LOHMANS CROSSING",
      "address": "2410 Ranch Road 620 South Lakeway, Suite 104, Austin, Texas, United States",
      "lat": 30.3400243,
      "lng": -97.9700459,
      "open_roles": {
        "Shift Supervisor": 1,
        "Barista": 1
      },
      "vacancy_score": 3.0,
      "vacancy_level": "critical",
      "listing_count": 2,
      "latest_posting": 1766293200,
      "osm_ids": []
    },
    "06268": {
      "store_num": "06268",
      "store_name": "HWY 183 & LAKE CREEK",
      "address": "14028 Research Blvd, Suite 410, Austin, Texas, United States",
      "lat": 30.4779809,
      "lng": -97.8033259,
      "open_roles": {
        "Barista": 1,
        "Shift Supervisor": 1
      },
      "vacancy_score": 3.0,
      "vacancy_level": "critical",
      "listing_count": 2,
      "latest_posting": 1770440400,
      "osm_ids": []
    },
    "14099": {
      "store_num": "14099",
      "store_name": "PFLUGERVILLE PKWY & FM 685",
      "address": "1709 Pflugerville Pkwy, Pflugerville, Texas, United States",
      "lat": 30.4559859,
      "lng": -97.6034147,
      "open_roles": {
        "Shift Supervisor": 1,
        "Barista": 1
      },
      "vacancy_score": 3.0,
      "vacancy_level": "critical",
      "listing_count": 2,
      "latest_posting": 1772859600,
      "osm_ids": []
    },
    "14500": {
      "store_num": "14500",
      "store_name": "SR 71 & US 290",
      "address": "7015 West US Hwy 290, Austin, Texas, United States",
      "lat": 30.2324842,
      "lng": -97.8740693,
      "open_roles": {
        "Shift Supervisor": 1
      },
      "vacancy_score": 2.0,
      "vacancy_level": "low",
      "listing_count": 1,
      "latest_posting": 1772859600,
      "osm_ids": []
    },
    "10757": {
      "store_num": "10757",
      "store_name": "BEN WHITE & PAYLOAD PASS",
      "address": "500A East Ben White Blvd, Austin, Texas, United States",
      "lat": 30.2177492,
      "lng": -97.691483,
      "open_roles": {
        "Barista": 1
      },
      "vacancy_score": 1.0,
      "vacancy_level": "low",
      "listing_count": 1,
      "latest_posting": 1772859600,
      "osm_ids": []
    },
    "02540": {
      "store_num": "02540",
      "store_name": "ARENA DISTRICT",
      "address": "339 N Front St, Arena District, Columbus, Ohio, United States",
      "lat": 39.9692076,
      "lng": -83.0048947,
      "open_roles": {
        "Shift Supervisor": 1,
        "Barista": 1
      },
      "vacancy_score": 3.0,
      "vacancy_level": "critical",
      "listing_count": 2,
      "latest_posting": 1766206800,
      "osm_ids": []
    },
    "84070": {
      "store_num": "84070",
      "store_name": "SHORT NORTH - N HIGH STREET",
      "address": "1014 N High St, 100B, Columbus, Ohio, United States",
      "lat": 39.9830981,
      "lng": -83.0045764,
      "open_roles": {
        "Shift Supervisor": 1,
        "Barista": 1
      },
      "vacancy_score": 3.0,
      "vacancy_level": "critical",
      "listing_count": 2,
      "latest_posting": 1769490000,
      "osm_ids": []
    },
    "67890": {
      "store_num": "67890",
      "store_name": "3RD & OLENTANGY",
      "address": "1223 Olentangy River Rd, Columbus, Ohio, United States",
      "lat": 39.9849415,
      "lng": -83.0241705,
      "open_roles": {
        "Barista": 1,
        "Shift Supervisor": 1
      },
      "vacancy_score": 3.0,
      "vacancy_level": "critical",
      "listing_count": 2,
      "latest_posting": 1773288000,
      "osm_ids": []
    },
    "10644": {
      "store_num": "10644",
      "store_name": "OLENTANGY RIVER RD",
      "address": "1570 Olentangy River Rd, Columbus, Ohio, United States",
      "lat": 39.9925574,
      "lng": -83.0252776,
      "open_roles": {
        "Shift Supervisor": 1,
        "Barista": 1
      },
      "vacancy_score": 3.0,
      "vacancy_level": "critical",
      "listing_count": 2,
      "latest_posting": 1772686800,
      "osm_ids": []
    },
    "02455": {
      "store_num": "02455",
      "store_name": "5TH AVENUE & GRANDVIEW",
      "address": "1085 West Fifth Avenue, Columbus, Ohio, United States",
      "lat": 39.9880514,
      "lng": -83.035245,
      "open_roles": {
        "Shift Supervisor": 1,
        "Barista": 1
      },
      "vacancy_score": 3.0,
      "vacancy_level": "critical",
      "listing_count": 2,
      "latest_posting": 1766466000,
      "osm_ids": []
    },
    "02434": {
      "store_num": "02434",
      "store_name": "OHIO STATE UNIVERSITY",
      "address": "1784 N High St, Ohio State University, Columbus, Ohio, United States",
      "lat": 39.9987802,
      "lng": -83.0073155,
      "open_roles": {
        "Barista": 1,
        "Shift Supervisor": 1
      },
      "vacancy_score": 3.0,
      "vacancy_level": "critical",
      "listing_count": 2,
      "latest_posting": 1765861200,
      "osm_ids": []
    },
    "02346": {
      "store_num": "02346",
      "store_name": "BEXLEY",
      "address": "2450 E Main St, Columbus, Ohio, United States",
      "lat": 39.9995518,
      "lng": -82.9913397,
      "open_roles": {
        "Shift Supervisor": 1,
        "Barista": 1
      },
      "vacancy_score": 3.0,
      "vacancy_level": "critical",
      "listing_count": 2,
      "latest_posting": 1768626000,
      "osm_ids": []
    },
    "02465": {
      "store_num": "02465",
      "store_name": "FIESTA LANE - LANE AVE",
      "address": "1315 W Lane Ave, Festival Square, Ste H, Columbus, Ohio, United States",
      "lat": 40.0063425,
      "lng": -83.0458015,
      "open_roles": {
        "Shift Supervisor": 1,
        "Barista": 1
      },
      "vacancy_score": 3.0,
      "vacancy_level": "critical",
      "listing_count": 2,
      "latest_posting": 1765861200,
      "osm_ids": []
    },
    "09278": {
      "store_num": "09278",
      "store_name": "BROADWAY & N. HIGH",
      "address": "3580 N High St, Columbus, Ohio, United States",
      "lat": 40.0350018,
      "lng": -83.0163246,
      "open_roles": {
        "Shift Supervisor": 1,
        "Barista": 1
      },
      "vacancy_score": 3.0,
      "vacancy_level": "critical",
      "listing_count": 2,
      "latest_posting": 1769922000,
      "osm_ids": []
    },
    "13861": {
      "store_num": "13861",
      "store_name": "UPPER ARLINGTON - TREMONT",
      "address": "3235 Tremont Rd, The Shoppes at Tremont, Columbus, Ohio, United States",
      "lat": 40.0229646,
      "lng": -83.0596187,
      "open_roles": {
        "Shift Supervisor": 1,
        "Barista": 1
      },
      "vacancy_score": 3.0,
      "vacancy_level": "critical",
      "listing_count": 2,
      "latest_posting": 1772859600,
      "osm_ids": []
    },
    "61353": {
      "store_num": "61353",
      "store_name": "WHITEHALL, 3855 EAST BROAD ST",
      "address": "3861 E Broad St, Columbus, Ohio, United States",
      "lat": 39.9808559,
      "lng": -82.8307654,
      "open_roles": {
        "Shift Supervisor": 1,
        "Barista": 1
      },
      "vacancy_score": 3.0,
      "vacancy_level": "critical",
      "listing_count": 2,
      "latest_posting": 1773460800,
      "osm_ids": []
    },
    "10288": {
      "store_num": "10288",
      "store_name": "1732 STRINGTOWN RD, PARKWAY CENTRE",
      "address": "1732 Stringtown Rd, Parkway Centre, Grove City, Ohio, United States",
      "lat": 39.8791462,
      "lng": -83.0411824,
      "open_roles": {
        "Shift Supervisor": 1,
        "Barista": 1
      },
      "vacancy_score": 3.0,
      "vacancy_level": "critical",
      "listing_count": 2,
      "latest_posting": 1772341200,
      "osm_ids": []
    },
    "02453": {
      "store_num": "02453",
      "store_name": "2191 STRINGTOWN RD, DERBY SQUARE",
      "address": "2191 Stringtown Rd, Grove City, Ohio, United States",
      "lat": 39.8783787,
      "lng": -83.0612772,
      "open_roles": {
        "Barista": 1,
        "Shift Supervisor": 1
      },
      "vacancy_score": 3.0,
      "vacancy_level": "critical",
      "listing_count": 2,
      "latest_posting": 1771650000,
      "osm_ids": []
    },
    "67098": {
      "store_num": "67098",
      "store_name": "STELZER RD AND MCCUTCHEN RD",
      "address": "2760 Stelzer Rd, Columbus, Ohio, United States",
      "lat": 40.029177,
      "lng": -82.910534,
      "open_roles": {
        "Shift Supervisor": 1,
        "Barista": 1
      },
      "vacancy_score": 3.0,
      "vacancy_level": "critical",
      "listing_count": 2,
      "latest_posting": 1772082000,
      "osm_ids": []
    },
    "63260": {
      "store_num": "63260",
      "store_name": "GRACELAND",
      "address": "50 Graceland Blvd, Columbus, Ohio, United States",
      "lat": 40.0660355,
      "lng": -83.0206866,
      "open_roles": {
        "Barista": 1,
        "Shift Supervisor": 1
      },
      "vacancy_score": 3.0,
      "vacancy_level": "critical",
      "listing_count": 2,
      "latest_posting": 1773288000,
      "osm_ids": []
    },
    "02644": {
      "store_num": "02644",
      "store_name": "HENDERSON",
      "address": "1873 West Henderson Road, Columbus, Ohio, United States",
      "lat": 40.0543427,
      "lng": -83.068873,
      "open_roles": {
        "Barista": 1,
        "Shift Supervisor": 1
      },
      "vacancy_score": 3.0,
      "vacancy_level": "critical",
      "listing_count": 2,
      "latest_posting": 1770267600,
      "osm_ids": []
    },
    "10975": {
      "store_num": "10975",
      "store_name": "BETHEL ROAD",
      "address": "965 Bethel Rd, Columbus, Ohio, United States",
      "lat": 40.0634034,
      "lng": -83.0450545,
      "open_roles": {
        "Barista": 1,
        "Shift Supervisor": 1
      },
      "vacancy_score": 3.0,
      "vacancy_level": "critical",
      "listing_count": 2,
      "latest_posting": 1772859600,
      "osm_ids": []
    },
    "02431": {
      "store_num": "02431",
      "store_name": "MILL RUN",
      "address": "3642 Fishinger Blvd, Market at Mill Run, Hilliard, Ohio, United States",
      "lat": 40.028052,
      "lng": -83.1163208,
      "open_roles": {
        "Barista": 1,
        "Shift Supervisor": 1
      },
      "vacancy_score": 3.0,
      "vacancy_level": "critical",
      "listing_count": 2,
      "latest_posting": 1766379600,
      "osm_ids": []
    },
    "02574": {
      "store_num": "02574",
      "store_name": "MARKET AT EASTON",
      "address": "3954 Morse Crossing, Market at Easton, Columbus, Ohio, United States",
      "lat": 40.0505184,
      "lng": -82.9193154,
      "open_roles": {
        "Barista": 1,
        "Shift Supervisor": 1
      },
      "vacancy_score": 3.0,
      "vacancy_level": "critical",
      "listing_count": 2,
      "latest_posting": 1770181200,
      "osm_ids": []
    },
    "02350": {
      "store_num": "02350",
      "store_name": "EASTON TOWN CENTER",
      "address": "4015 Easton Station, Easton Town Center, Columbus, Ohio, United States",
      "lat": 40.04967,
      "lng": -82.914447,
      "open_roles": {
        "Shift Supervisor": 1,
        "Barista": 1
      },
      "vacancy_score": 3.0,
      "vacancy_level": "critical",
      "listing_count": 2,
      "latest_posting": 1765861200,
      "osm_ids": []
    },
    "77675": {
      "store_num": "77675",
      "store_name": "HILLIARD ROME RD & FEDER RD",
      "address": "923 Hilliard Rome Rd, Columbus, Ohio, United States",
      "lat": 39.9725346,
      "lng": -83.150032,
      "open_roles": {
        "Barista": 1,
        "Shift Supervisor": 1
      },
      "vacancy_score": 3.0,
      "vacancy_level": "critical",
      "listing_count": 2,
      "latest_posting": 1773460800,
      "osm_ids": []
    },
    "61849": {
      "store_num": "61849",
      "store_name": "S. HAMILTON RD & WINCHESTER PIKE",
      "address": "3770 S Hamilton Rd, Groveport, Ohio, United States",
      "lat": 39.8972964,
      "lng": -82.8816268,
      "open_roles": {
        "Barista": 1,
        "Shift Supervisor": 1
      },
      "vacancy_score": 3.0,
      "vacancy_level": "critical",
      "listing_count": 2,
      "latest_posting": 1773115200,
      "osm_ids": []
    },
    "25091": {
      "store_num": "25091",
      "store_name": "SHOPS AT HILLIARD-ROME",
      "address": "1581 Hilliard-Rome Road, Columbus, Ohio, United States",
      "lat": 39.9839871,
      "lng": -83.152179,
      "open_roles": {
        "Barista": 1,
        "Shift Supervisor": 1
      },
      "vacancy_score": 3.0,
      "vacancy_level": "critical",
      "listing_count": 2,
      "latest_posting": 1772859600,
      "osm_ids": []
    },
    "11881": {
      "store_num": "11881",
      "store_name": "THE MARKET AT EAST BROAD",
      "address": "6264 E Broad St, The Market at East Broad, Columbus, Ohio, United States",
      "lat": 39.980967,
      "lng": -82.8342383,
      "open_roles": {
        "Barista": 1,
        "Shift Supervisor": 1
      },
      "vacancy_score": 3.0,
      "vacancy_level": "critical",
      "listing_count": 2,
      "latest_posting": 1772859600,
      "osm_ids": []
    },
    "02781": {
      "store_num": "02781",
      "store_name": "GAHANNA STARBUCKS HAMILTON ROAD",
      "address": "1370 N Hamilton Rd, Columbus, Ohio, United States",
      "lat": 40.0541034,
      "lng": -82.8631266,
      "open_roles": {
        "Barista": 1,
        "Shift Supervisor": 1
      },
      "vacancy_score": 3.0,
      "vacancy_level": "critical",
      "listing_count": 2,
      "latest_posting": 1766206800,
      "osm_ids": []
    },
    "48806": {
      "store_num": "48806",
      "store_name": "TUTTLE CROSSING BLVD",
      "address": "4967 Tuttle Crossing Blvd, Dublin, Ohio, United States",
      "lat": 40.0747123,
      "lng": -83.1430923,
      "open_roles": {
        "Barista": 1,
        "Shift Supervisor": 1
      },
      "vacancy_score": 3.0,
      "vacancy_level": "critical",
      "listing_count": 2,
      "latest_posting": 1772946000,
      "osm_ids": []
    },
    "02519": {
      "store_num": "02519",
      "store_name": "SAWMILL AND GRANVILLE",
      "address": "6470 Sawmill Rd, Columbus, Ohio, United States",
      "lat": 40.1002181,
      "lng": -83.0906367,
      "open_roles": {
        "Shift Supervisor": 1,
        "Barista": 1
      },
      "vacancy_score": 3.0,
      "vacancy_level": "critical",
      "listing_count": 2,
      "latest_posting": 1773460800,
      "osm_ids": []
    },
    "02641": {
      "store_num": "02641",
      "store_name": "CROSSWOODS",
      "address": "199 E Campus View Blvd, Columbus, Ohio, United States",
      "lat": 40.1178281,
      "lng": -83.0098767,
      "open_roles": {
        "Barista": 1,
        "Shift Supervisor": 1
      },
      "vacancy_score": 3.0,
      "vacancy_level": "critical",
      "listing_count": 2,
      "latest_posting": 1767416400,
      "osm_ids": []
    },
    "65662": {
      "store_num": "65662",
      "store_name": "FRANTZ RD & BLAZER PKWY",
      "address": "5885 Frantz Rd, Dublin, Ohio, United States",
      "lat": 40.088465,
      "lng": -83.1237324,
      "open_roles": {
        "Barista": 1,
        "Shift Supervisor": 1
      },
      "vacancy_score": 3.0,
      "vacancy_level": "critical",
      "listing_count": 2,
      "latest_posting": 1773288000,
      "osm_ids": []
    },
    "02376": {
      "store_num": "02376",
      "store_name": "WESTERVILLE",
      "address": "533 S State St, Westerville, Ohio, United States",
      "lat": 40.1122542,
      "lng": -82.9266578,
      "open_roles": {
        "Shift Supervisor": 1,
        "Barista": 1
      },
      "vacancy_score": 3.0,
      "vacancy_level": "critical",
      "listing_count": 2,
      "latest_posting": 1766034000,
      "osm_ids": []
    },
    "02419": {
      "store_num": "02419",
      "store_name": "HISTORIC DUBLIN",
      "address": "19 W Bridge St, Olde Dublin Town Center, Unit 101, Dublin, Ohio, United States",
      "lat": 40.099252,
      "lng": -83.1167094,
      "open_roles": {
        "Barista": 1,
        "Shift Supervisor": 1
      },
      "vacancy_score": 3.0,
      "vacancy_level": "critical",
      "listing_count": 2,
      "latest_posting": 1765861200,
      "osm_ids": []
    },
    "56784": {
      "store_num": "56784",
      "store_name": "TAYLOR SQUARE",
      "address": "2915 Taylor Road SW, Reynoldsburg, Ohio, United States",
      "lat": 39.9621103,
      "lng": -82.7710232,
      "open_roles": {
        "Barista": 1,
        "Shift Supervisor": 1
      },
      "vacancy_score": 3.0,
      "vacancy_level": "critical",
      "listing_count": 2,
      "latest_posting": 1773115200,
      "osm_ids": []
    },
    "09404": {
      "store_num": "09404",
      "store_name": "EAST BROAD & WAGGONER",
      "address": "8070 E Broad St, Reynoldsburg, Ohio, United States",
      "lat": 39.9866508,
      "lng": -82.7848633,
      "open_roles": {
        "Shift Supervisor": 1,
        "Barista": 1
      },
      "vacancy_score": 3.0,
      "vacancy_level": "critical",
      "listing_count": 2,
      "latest_posting": 1773288000,
      "osm_ids": []
    },
    "10842": {
      "store_num": "10842",
      "store_name": "CANAL WINCHESTER",
      "address": "6130 Gender Rd, Canal Winchester, Ohio, United States",
      "lat": 39.8555135,
      "lng": -82.8274612,
      "open_roles": {
        "Barista": 1,
        "Shift Supervisor": 1
      },
      "vacancy_score": 3.0,
      "vacancy_level": "critical",
      "listing_count": 2,
      "latest_posting": 1772859600,
      "osm_ids": []
    },
    "02355": {
      "store_num": "02355",
      "store_name": "POLARIS PARKWAY AND SANCUS BLVD",
      "address": "1187 Polaris Pkwy, Polaris Town Center, Columbus, Ohio, United States",
      "lat": 40.1417042,
      "lng": -82.9880023,
      "open_roles": {
        "Barista": 1,
        "Shift Supervisor": 1
      },
      "vacancy_score": 3.0,
      "vacancy_level": "critical",
      "listing_count": 2,
      "latest_posting": 1766034000,
      "osm_ids": []
    },
    "85514": {
      "store_num": "85514",
      "store_name": "HILL ROAD NORTH",
      "address": "961 Hill Road North, Pickerington, Ohio, United States",
      "lat": 39.8899322,
      "lng": -82.7584975,
      "open_roles": {
        "Barista": 1,
        "Shift Supervisor": 1
      },
      "vacancy_score": 3.0,
      "vacancy_level": "critical",
      "listing_count": 2,
      "latest_posting": 1773460800,
      "osm_ids": []
    },
    "15198": {
      "store_num": "15198",
      "store_name": "POLARIS MALL LEVEL 1",
      "address": "1500 Polaris Parkway, 1138, Columbus, Ohio, United States",
      "lat": 40.1444123,
      "lng": -82.9824369,
      "open_roles": {
        "Barista": 1,
        "Shift Supervisor": 1
      },
      "vacancy_score": 3.0,
      "vacancy_level": "critical",
      "listing_count": 2,
      "latest_posting": 1772254800,
      "osm_ids": []
    },
    "10244": {
      "store_num": "10244",
      "store_name": "POLARIS PARKWAY EAST",
      "address": "2040 Polaris Pkwy, Polaris Parkway Commercial Center, Columbus, Ohio, United States",
      "lat": 40.1451419,
      "lng": -82.9633881,
      "open_roles": {
        "Barista": 1,
        "Shift Supervisor": 1
      },
      "vacancy_score": 3.0,
      "vacancy_level": "critical",
      "listing_count": 2,
      "latest_posting": 1772341200,
      "osm_ids": []
    },
    "02560": {
      "store_num": "02560",
      "store_name": "LIBRARY SQUARE - NEW ALBANY",
      "address": "220 Market St, Library Square, New Albany, Ohio, United States",
      "lat": 40.0810895,
      "lng": -82.815298,
      "open_roles": {
        "Shift Supervisor": 1,
        "Barista": 1
      },
      "vacancy_score": 3.0,
      "vacancy_level": "critical",
      "listing_count": 2,
      "latest_posting": 1766206800,
      "osm_ids": []
    },
    "49329": {
      "store_num": "49329",
      "store_name": "WESTERVILLE, N. CLEVELAND AVE",
      "address": "697 N Cleveland Ave, Westerville, Ohio, United States",
      "lat": 40.1447005,
      "lng": -82.9471391,
      "open_roles": {
        "Shift Supervisor": 1,
        "Barista": 1
      },
      "vacancy_score": 3.0,
      "vacancy_level": "critical",
      "listing_count": 2,
      "latest_posting": 1766206800,
      "osm_ids": []
    },
    "25385": {
      "store_num": "25385",
      "store_name": "LILLYS CORNER",
      "address": "5371 New Albany Road, New Albany, Ohio, United States",
      "lat": 40.0935273,
      "lng": -82.8235589,
      "open_roles": {
        "Barista": 1,
        "Shift Supervisor": 1
      },
      "vacancy_score": 3.0,
      "vacancy_level": "critical",
      "listing_count": 2,
      "latest_posting": 1772859600,
      "osm_ids": []
    },
    "61843": {
      "store_num": "61843",
      "store_name": "N STATE ST & POLARIS WOODS BLVD",
      "address": "648 N State St, Westerville, Ohio, United States",
      "lat": 40.1435603,
      "lng": -82.9254538,
      "open_roles": {
        "Shift Supervisor": 1,
        "Barista": 1
      },
      "vacancy_score": 3.0,
      "vacancy_level": "critical",
      "listing_count": 2,
      "latest_posting": 1773115200,
      "osm_ids": []
    },
    "02681": {
      "store_num": "02681",
      "store_name": "RT 23 - LEWIS CENTER",
      "address": "21 Neverland Dr, Lewis Center, Ohio, United States",
      "lat": 40.1579702,
      "lng": -83.019529,
      "open_roles": {
        "Barista": 1,
        "Shift Supervisor": 1
      },
      "vacancy_score": 3.0,
      "vacancy_level": "critical",
      "listing_count": 2,
      "latest_posting": 1767502800,
      "osm_ids": []
    },
    "02576": {
      "store_num": "02576",
      "store_name": "POWELL & SAWMILL",
      "address": "9700 Sawmill Pkwy, Powell Plaza, Powell, Ohio, United States",
      "lat": 40.1578558,
      "lng": -83.0922202,
      "open_roles": {
        "Shift Supervisor": 1,
        "Barista": 1
      },
      "vacancy_score": 3.0,
      "vacancy_level": "critical",
      "listing_count": 2,
      "latest_posting": 1772082000,
      "osm_ids": []
    },
    "54604": {
      "store_num": "54604",
      "store_name": "GERMAN VILLAGE, E. LIVINGSTON AVE",
      "address": "399 E Livingston Ave, Columbus, Ohio, United States",
      "lat": 39.9521089,
      "lng": -82.9880065,
      "open_roles": {
        "Shift Supervisor": 1
      },
      "vacancy_score": 2.0,
      "vacancy_level": "low",
      "listing_count": 1,
      "latest_posting": 1768453200,
      "osm_ids": []
    },
    "61509": {
      "store_num": "61509",
      "store_name": "SOUTH HIGH ST",
      "address": "1059 S High St, Columbus, Ohio, United States",
      "lat": 39.9404414,
      "lng": -82.996772,
      "open_roles": {
        "Shift Supervisor": 1
      },
      "vacancy_score": 2.0,
      "vacancy_level": "low",
      "listing_count": 1,
      "latest_posting": 1772082000,
      "osm_ids": []
    },
    "29599": {
      "store_num": "29599",
      "store_name": "GRANDVIEW HEIGHTS",
      "address": "1093 Dublin Rd, Columbus, Ohio, United States",
      "lat": 39.9727505,
      "lng": -83.0462132,
      "open_roles": {
        "Shift Supervisor": 1
      },
      "vacancy_score": 2.0,
      "vacancy_level": "low",
      "listing_count": 1,
      "latest_posting": 1766206800,
      "osm_ids": []
    },
    "48989": {
      "store_num": "48989",
      "store_name": "EAST LANE AVE, COLUMBUS",
      "address": "2136 N High St, Columbus, Ohio, United States",
      "lat": 40.0059112,
      "lng": -83.008982,
      "open_roles": {
        "Shift Supervisor": 1
      },
      "vacancy_score": 2.0,
      "vacancy_level": "low",
      "listing_count": 1,
      "latest_posting": 1772946000,
      "osm_ids": []
    },
    "08880": {
      "store_num": "08880",
      "store_name": "BRICE ROAD",
      "address": "2560 Brice Rd, Reynoldsburg, Ohio, United States",
      "lat": 39.9483553,
      "lng": -82.8293017,
      "open_roles": {
        "Shift Supervisor": 1
      },
      "vacancy_score": 2.0,
      "vacancy_level": "low",
      "listing_count": 1,
      "latest_posting": 1772341200,
      "osm_ids": []
    },
    "49558": {
      "store_num": "49558",
      "store_name": "London-Groveport Rd W, Grove City",
      "address": "3015 Meadow Pond Court, Grove City, Ohio, United States",
      "lat": 39.8406569,
      "lng": -83.0860951,
      "open_roles": {
        "Shift Supervisor": 1
      },
      "vacancy_score": 2.0,
      "vacancy_level": "low",
      "listing_count": 1,
      "latest_posting": 1772946000,
      "osm_ids": []
    },
    "10289": {
      "store_num": "10289",
      "store_name": "WILSON BRIDGE & N HIGH",
      "address": "7176 N High St, Wilson Bridge Retail Center, Columbus, Ohio, United States",
      "lat": 39.9774751,
      "lng": -83.0036065,
      "open_roles": {
        "Shift Supervisor": 1
      },
      "vacancy_score": 2.0,
      "vacancy_level": "low",
      "listing_count": 1,
      "latest_posting": 1772341200,
      "osm_ids": []
    },
    "20129": {
      "store_num": "20129",
      "store_name": "PICKERINGTON PLAZA",
      "address": "10709 Blacklick Eastern Rd West, Shoppes at Hunter's Run V, A, Pickerington, Ohio, United States",
      "lat": 39.9287893,
      "lng": -82.7874805,
      "open_roles": {
        "Shift Supervisor": 1
      },
      "vacancy_score": 2.0,
      "vacancy_level": "low",
      "listing_count": 1,
      "latest_posting": 1772686800,
      "osm_ids": []
    },
    "67461": {
      "store_num": "67461",
      "store_name": "LIVINGSTON & I-70",
      "address": "2127 E Livingston Ave, Columbus, Ohio, United States",
      "lat": 39.9481081,
      "lng": -82.9400059,
      "open_roles": {
        "Barista": 1
      },
      "vacancy_score": 1.0,
      "vacancy_level": "low",
      "listing_count": 1,
      "latest_posting": 1772082000,
      "osm_ids": []
    },
    "11371": {
      "store_num": "11371",
      "store_name": "GEORGESVILLE CENTER",
      "address": "1355 Georgesville Rd, Georgesville Center, Columbus, Ohio, United States",
      "lat": 39.9256203,
      "lng": -83.1185964,
      "open_roles": {
        "Barista": 1
      },
      "vacancy_score": 1.0,
      "vacancy_level": "low",
      "listing_count": 1,
      "latest_posting": 1773115200,
      "osm_ids": []
    },
    "61853": {
      "store_num": "61853",
      "store_name": "HAMILTON QUARTER SHOPPING CENTER",
      "address": "5992 N. Hamilton Road, Westerville, Ohio, United States",
      "lat": 40.0755412,
      "lng": -82.8538336,
      "open_roles": {
        "Barista": 1
      },
      "vacancy_score": 1.0,
      "vacancy_level": "low",
      "listing_count": 1,
      "latest_posting": 1773115200,
      "osm_ids": []
    },
    "25358": {
      "store_num": "25358",
      "store_name": "PERIMETER CENTER",
      "address": "6510 Perimeter Dr, Dublin, Ohio, United States",
      "lat": 40.1050804,
      "lng": -83.1613555,
      "open_roles": {
        "Barista": 1
      },
      "vacancy_score": 1.0,
      "vacancy_level": "low",
      "listing_count": 1,
      "latest_posting": 1766206800,
      "osm_ids": []
    }
  },
  "location": "austin",
  "radius_mi": 25,
  "total_stores": 109
}